[{"session":{"sessionStartTime":"2017-02-15T20:00:00+01:00","cinema":"257","movie":20570,"language":"de","cinemaInfo":{"name":"Zoo-Palast","gps":null,"address":"Hardenberg StraÃe 29a 29a, 10623, Berlin","telephone":"01805222966","lat":52.5059,"lon":13.3331,"text":0.0,"id":"257","url":null}},"cinema":{"name":"Zoo-Palast","gps":null,"address":"Hardenberg StraÃe 29a 29a, 10623, Berlin","telephone":"01805222966","lat":52.5059,"lon":13.3331,"text":0.0,"id":"257","url":null},"restaurant":{"rest_id":"ChIJq0883fxQqEcRd_xp-ftjiYc","name":"Simela finest food","openingHours":[{"day":0,"open":"14:00","close":"23:00"},{"day":1,"open":"12:00","close":"23:00"},{"day":2,"open":"12:00","close":"23:00"},{"day":3,"open":"12:00","close":"23:00"},{"day":4,"open":"12:00","close":"23:00"},{"day":5,"open":"12:00","close":"23:00"},{"day":6,"open":"12:00","close":"23:00"}],"cuisine":null,"price":1.0,"rating":4.5,"phone":"+49 30 81612600","webpage":"http://www.simela.de/","lat":52.50557000000001,"lon":13.32353,"address":"Kantstraße 146, 10623 Berlin, Germany"},"publicTransportTime":13,"walkingTime":8,"score":2.25},{"session":{"sessionStartTime":"2017-02-15T20:00:00+01:00","cinema":"257","movie":20570,"language":"de","cinemaInfo":{"name":"Zoo-Palast","gps":null,"address":"Hardenberg StraÃe 29a 29a, 10623, Berlin","telephone":"01805222966","lat":52.5059,"lon":13.3331,"text":0.0,"id":"257","url":null}},"cinema":{"name":"Zoo-Palast","gps":null,"address":"Hardenberg StraÃe 29a 29a, 10623, Berlin","telephone":"01805222966","lat":52.5059,"lon":13.3331,"text":0.0,"id":"257","url":null},"restaurant":{"rest_id":"ChIJ4z2z9FRQqEcRb6XRKa2v4_w","name":"Suksan","openingHours":[{"day":0,"open":"17:00","close":"23:00"},{"day":1,"open":"12:00","close":"23:00"},{"day":2,"open":"12:00","close":"23:00"},{"day":3,"open":"12:00","close":"23:00"},{"day":4,"open":"12:00","close":"23:00"},{"day":6,"open":"12:00","close":"00:00"},{"day":0,"open":"16:00","close":"00:00"}],"cuisine":null,"price":1.0,"rating":4.2,"phone":"+49 30 21018673","webpage":"http://suksan.de/","lat":52.50432499999999,"lon":13.342468,"address":"Ansbacher Str. 4, 10787 Berlin, Germany"},"publicTransportTime":13,"walkingTime":8,"score":0.75},{"session":{"sessionStartTime":"2017-02-15T20:00:00+01:00","cinema":"257","movie":20570,"language":"de","cinemaInfo":{"name":"Zoo-Palast","gps":null,"address":"Hardenberg StraÃe 29a 29a, 10623, Berlin","telephone":"01805222966","lat":52.5059,"lon":13.3331,"text":0.0,"id":"257","url":null}},"cinema":{"name":"Zoo-Palast","gps":null,"address":"Hardenberg StraÃe 29a 29a, 10623, Berlin","telephone":"01805222966","lat":52.5059,"lon":13.3331,"text":0.0,"id":"257","url":null},"restaurant":{"rest_id":"ChIJ1TKNu-JQqEcRzg5u-bzb8wg","name":"Cento Grammi","openingHours":[{"day":0,"open":"17:30","close":"23:30"},{"day":3,"open":"17:30","close":"23:30"},{"day":4,"open":"17:30","close":"23:30"},{"day":5,"open":"17:30","close":"23:30"},{"day":6,"open":"17:30","close":"23:30"}],"cuisine":null,"price":2.0,"rating":4.7,"phone":"+49 30 50968844","webpage":"http://www.centogrammi.de/","lat":52.50808,"lon":13.322499,"address":"Knesebeckstraße 16, 10623 Berlin, Germany"},"publicTransportTime":13,"walkingTime":11,"score":-6.25},{"session":{"sessionStartTime":"2017-02-15T20:00:00+01:00","cinema":"257","movie":20570,"language":"de","cinemaInfo":{"name":"Zoo-Palast","gps":null,"address":"Hardenberg StraÃe 29a 29a, 10623, Berlin","telephone":"01805222966","lat":52.5059,"lon":13.3331,"text":0.0,"id":"257","url":null}},"cinema":{"name":"Zoo-Palast","gps":null,"address":"Hardenberg StraÃe 29a 29a, 10623, Berlin","telephone":"01805222966","lat":52.5059,"lon":13.3331,"text":0.0,"id":"257","url":null},"restaurant":{"rest_id":"ChIJI6oiZfpQqEcRw2hLGgDDGjg","name":"Serrano Restaurant","openingHours":[{"day":1,"open":"17:00","close":"23:00"},{"day":2,"open":"17:00","close":"23:00"},{"day":3,"open":"17:00","close":"23:00"},{"day":4,"open":"17:00","close":"23:00"},{"day":5,"open":"17:00","close":"23:00"},{"day":6,"open":"17:00","close":"23:00"}],"cuisine":null,"price":1.0,"rating":4.6,"phone":"+49 30 88929244","webpage":"http://www.restaurante-serrano.de/","lat":52.49874519999999,"lon":13.3229023,"address":"Pfalzburger Str. 83, 10719 Berlin, Germany"},"publicTransportTime":13,"walkingTime":15,"score":-7.75},{"session":{"sessionStartTime":"2017-02-15T20:00:00+01:00","cinema":"257","movie":20570,"language":"de","cinemaInfo":{"name":"Zoo-Palast","gps":null,"address":"Hardenberg StraÃe 29a 29a, 10623, Berlin","telephone":"01805222966","lat":52.5059,"lon":13.3331,"text":0.0,"id":"257","url":null}},"cinema":{"name":"Zoo-Palast","gps":null,"address":"Hardenberg StraÃe 29a 29a, 10623, Berlin","telephone":"01805222966","lat":52.5059,"lon":13.3331,"text":0.0,"id":"257","url":null},"restaurant":{"rest_id":"ChIJZwlG2uJQqEcRtNAhpq__P2U","name":"Bertolini","openingHours":[{"day":2,"open":"12:00","close":"23:00"},{"day":3,"open":"12:00","close":"23:00"},{"day":4,"open":"12:00","close":"23:00"},{"day":5,"open":"12:00","close":"23:00"},{"day":6,"open":"12:00","close":"23:00"}],"cuisine":null,"price":2.0,"rating":4.2,"phone":"+49 30 81035196","webpage":"http://www.bertolini-feinkost.de/","lat":52.50696669999999,"lon":13.3213016,"address":"Grolmanstraße 22, 10623 Berlin, Germany"},"publicTransportTime":13,"walkingTime":11,"score":-8.75}]
